{
  "2025": {
    "June": {
      "25": [
        {
          "id": "DL101",
          "date": "2025-06-25",
          "address": "Express Avenue Mall, Whites Rd, Royapettah, Chennai",
          "lat": 13.0827,
          "lng": 80.2707,
          "load_size": 3,
          "delivery_deadline": "2025-06-27",
          "status": "completed",
          "assigned_to": ""
        },
        {
          "id": "DL102",
          "date": "2025-06-25",
          "address": "Express Avenue Mall, Whites Rd, Royapettah, Chennai",
          "lat": 13.0827,
          "lng": 80.2707,
          "load_size": 3,
          "delivery_deadline": "2025-06-27",
          "status": "Not Started",
          "assigned_to": ""
        },
        {
          "id": "DL103",
          "date": "2025-06-25",
          "address": "Express Avenue Mall, Whites Rd, Royapettah, Chennai",
          "lat": 13.0827,
          "lng": 80.2707,
          "load_size": 3,
          "delivery_deadline": "2025-06-27",
          "status": "Not Started",
          "assigned_to": ""
        }
      ],
      "26": [
        {
          "id": "PKG001",
          "date": "2025-06-26",
          "address": "Express Avenue Mall, Whites Rd, Royapettah, Chennai",
          "lat": 13.0827,
          "lng": 80.2707,
          "load_size": 12,
          "delivery_deadline": "2025-06-27T13:00:00",
          "status": "Not Started",
          "assigned_to": ""
        },
        {
          "id": "PKG002",
          "date": "2025-06-26",
          "address": "Citi Centre, Dr Radhakrishnan Salai, Mylapore, Chennai",
          "lat": 13.0879,
          "lng": 80.2107,
          "load_size": 8,
          "delivery_deadline": "2025-06-28T14:00:00",
          "status": "Not Started",
          "assigned_to": ""
        },
        {
          "id": "PKG003",
          "date": "2025-06-26",
          "address": "Anna University, Sardar Patel Rd, Guindy, Chennai",
          "lat": 12.9791,
          "lng": 80.2215,
          "load_size": 5,
          "delivery_deadline": "2025-06-28T15:00:00",
          "status": "Not Started",
          "assigned_to": ""
        },
        {
          "id": "PKG104",
          "date": "2025-06-26",
          "address": "Phoenix Marketcity, Velachery Road, Chennai",
          "lat": 12.9896,
          "lng": 80.2181,
          "load_size": 8,
          "delivery_deadline": "2025-06-29T14:30:00",
          "status": "Not Started",
          "assigned_to": ""
        },
        {
          "id": "PKG105",
          "date": "2025-06-26",
          "address": "TCS, Thoraipakkam, Rajiv Gandhi Salai (OMR), Chennai",
          "lat": 12.9491,
          "lng": 80.2406,
          "load_size": 14,
          "delivery_deadline": "2025-06-29T15:00:00",
          "status": "Not Started",
          "assigned_to": ""
        },
        {
          "id": "PKG106",
          "date": "2025-06-26",
          "address": "Infosys, Sholinganallur, Chennai",
          "lat": 12.8996,
          "lng": 80.227,
          "load_size": 10,
          "delivery_deadline": "2025-06-27T15:30:00",
          "status": "Not Started",
          "assigned_to": ""
        },
        {
          "id": "PKG007",
          "date": "2025-06-26",
          "address": "Express Avenue Mall, Whites Rd, Royapettah, Chennai",
          "lat": 13.0827,
          "lng": 80.2707,
          "load_size": 12,
          "delivery_deadline": "2025-06-27",
          "status": "Not Started",
          "assigned_to": ""
        }
      ]
    }
  }
}